{"layout":"tutorial_hands_on","title":"Cleaning GBIF data using OpenRefine","zenodo_link":"","questions":["How can I use OpenRefine to clean data?","How do I check and clean biodiversity data using OpenRefine?"],"objectives":["Use OpenRefine faceting functionalities to apply mass editing and manage duplicates","Use OpenRefine clustering and filtering functionalities to edit, transform data notably using regular expression","Use OpenRefine to apply API services on your data"],"time_estimation":"0h45m","key_points":["OpenRefine is a powerful tool, with many functionalities to check, clean and enrich your data"],"contributions":{"authorship":["yvanlebras","sophiepamerlon","laurarussell"],"funding":["gbif","pndb"],"reviewing":["shiltemann","yvanlebras","bgruening"]},"subtopic":"ecologymetadatamgt","js_requirements":{"mathjax":null,"mermaid":false},"short_id":null,"symlink":null,"url":"/topics/ecology/tutorials/openrefine_gbif/tutorial.html","topic_name":"ecology","tutorial_name":"openrefine_gbif","dir":"topics/ecology/tutorials/openrefine_gbif","id":"ecology/openrefine_gbif","hands_on":true,"slides":false,"mod_date":"2025-01-21 21:32:43 +0000","pub_date":"2025-01-21 21:32:43 +0000","version":1,"api":"https://training.galaxyproject.org/training-material/api/topics/ecology/tutorials/openrefine_gbif/tutorial.json","tools":["interactive_tool_openrefine","toolshed.g2.bx.psu.edu/repos/galaxyp/regex_find_replace/regex1/1.0.3"],"supported_servers":{"exact":[{"url":"https://usegalaxy.eu","name":"UseGalaxy.eu","usegalaxy":true},{"url":"https://usegalaxy.fr/","name":"UseGalaxy.fr","usegalaxy":true}],"inexact":[]},"supported_servers_matrix":{"servers":[{"url":"http://apostl.moffitt.org/","name":"APOSTL","usegalaxy":false},{"url":"https://iris.angers.inra.fr/galaxypub-cfbp","name":"CIRM-CFBP","usegalaxy":false},{"url":"https://vm-chemflow-francegrille.eu/","name":"ChemFlow","usegalaxy":false},{"url":"https://hyperbrowser.uio.no/coloc-stats","name":"Coloc-stats","usegalaxy":false},{"url":"http://corgat.cloud.ba.infn.it/galaxy","name":"CorGAT","usegalaxy":false},{"url":"https://coralsnp.science.psu.edu/galaxy/","name":"CoralSNP","usegalaxy":false},{"url":"http://cropgalaxy.excellenceinbreeding.org/","name":"CropGalaxy","usegalaxy":false},{"url":"http://dintor.eurac.edu/","name":"Dintor","usegalaxy":false},{"url":"http://igg.cloud.ba.infn.it/galaxy","name":"GASLINI","usegalaxy":false},{"url":"https://galaxy.mesocentre.uca.fr","name":"Galaxy@AuBi","usegalaxy":false},{"url":"https://galaxy.pasteur.fr/","name":"Galaxy@Pasteur","usegalaxy":false},{"url":"https://galaxytrakr.org/","name":"GalaxyTrakr","usegalaxy":false},{"url":"http://hyperbrowser.uio.no/hb/","name":"Genomic Hyperbrowser","usegalaxy":false},{"url":"http://gigagalaxy.net/","name":"GigaGalaxy","usegalaxy":false},{"url":"https://galaxy-web.ipk-gatersleben.de","name":"IPK Galaxy Blast Suite","usegalaxy":false},{"url":"https://www.immportgalaxy.org/","name":"ImmPort Galaxy","usegalaxy":false},{"url":"http://galaxy.interactomix.com/","name":"InteractoMIX","usegalaxy":false},{"url":"http://galaxy.ul.edu.lb/","name":"Lebanese University Galaxy","usegalaxy":false},{"url":"https://mississippi.sorbonne-universite.fr","name":"MISSISSIPPI","usegalaxy":false},{"url":"https://neo.engr.uconn.edu/","name":"Mandoiu Lab","usegalaxy":false},{"url":"http://mapping-by-sequencing.vm.uni-freiburg.de:8080/","name":"MiModD NacreousMap","usegalaxy":false},{"url":"http://galaxy.inf.ethz.ch","name":"Oqtans","usegalaxy":false},{"url":"https://palfinder.ls.manchester.ac.uk/","name":"Palfinder","usegalaxy":false},{"url":"http://pepsimili.e-nios.com:8080/","name":"PepSimili","usegalaxy":false},{"url":"https://galaxy.bio.di.uminho.pt/","name":"PhagePromotor","usegalaxy":false},{"url":"https://usegalaxy.be/","name":"UseGalaxy.be","usegalaxy":false},{"url":"https://usegalaxy.cz/","name":"UseGalaxy.cz","usegalaxy":false},{"url":"https://usegalaxy.eu","name":"UseGalaxy.eu","usegalaxy":true},{"url":"https://usegalaxy.fr/","name":"UseGalaxy.fr","usegalaxy":true},{"url":"https://usegalaxy.no/","name":"UseGalaxy.no","usegalaxy":false},{"url":"https://usegalaxy.org","name":"UseGalaxy.org (Main)","usegalaxy":true},{"url":"https://usegalaxy.org.au","name":"UseGalaxy.org.au","usegalaxy":true},{"url":"https://viralvariant.anses.fr/","name":"Viral Variant Visualizer (VVV)","usegalaxy":false}],"tools":[{"id":"interactive_tool_openrefine","servers":[{"state":"missing","server":"http://apostl.moffitt.org/"},{"state":"missing","server":"https://iris.angers.inra.fr/galaxypub-cfbp"},{"state":"missing","server":"https://vm-chemflow-francegrille.eu/"},{"state":"missing","server":"https://hyperbrowser.uio.no/coloc-stats"},{"state":"missing","server":"http://corgat.cloud.ba.infn.it/galaxy"},{"state":"missing","server":"https://coralsnp.science.psu.edu/galaxy/"},{"state":"missing","server":"http://cropgalaxy.excellenceinbreeding.org/"},{"state":"missing","server":"http://dintor.eurac.edu/"},{"state":"missing","server":"http://igg.cloud.ba.infn.it/galaxy"},{"state":"missing","server":"https://galaxy.mesocentre.uca.fr"},{"state":"missing","server":"https://galaxy.pasteur.fr/"},{"state":"missing","server":"https://galaxytrakr.org/"},{"state":"missing","server":"http://hyperbrowser.uio.no/hb/"},{"state":"missing","server":"http://gigagalaxy.net/"},{"state":"missing","server":"https://galaxy-web.ipk-gatersleben.de"},{"state":"missing","server":"https://www.immportgalaxy.org/"},{"state":"missing","server":"http://galaxy.interactomix.com/"},{"state":"missing","server":"http://galaxy.ul.edu.lb/"},{"state":"missing","server":"https://mississippi.sorbonne-universite.fr"},{"state":"missing","server":"https://neo.engr.uconn.edu/"},{"state":"missing","server":"http://mapping-by-sequencing.vm.uni-freiburg.de:8080/"},{"state":"missing","server":"http://galaxy.inf.ethz.ch"},{"state":"missing","server":"https://palfinder.ls.manchester.ac.uk/"},{"state":"missing","server":"http://pepsimili.e-nios.com:8080/"},{"state":"missing","server":"https://galaxy.bio.di.uminho.pt/"},{"state":"missing","server":"https://usegalaxy.be/"},{"state":"missing","server":"https://usegalaxy.cz/"},{"state":"local","server":"https://usegalaxy.eu"},{"state":"local","server":"https://usegalaxy.fr/"},{"state":"missing","server":"https://usegalaxy.no/"},{"state":"missing","server":"https://usegalaxy.org"},{"state":"missing","server":"https://usegalaxy.org.au"},{"state":"missing","server":"https://viralvariant.anses.fr/"}],"version":"local"},{"id":"toolshed.g2.bx.psu.edu/repos/galaxyp/regex_find_replace/regex1/1.0.3","servers":[{"state":"missing","server":"http://apostl.moffitt.org/"},{"state":"missing","server":"https://iris.angers.inra.fr/galaxypub-cfbp"},{"state":"missing","server":"https://vm-chemflow-francegrille.eu/"},{"state":"missing","server":"https://hyperbrowser.uio.no/coloc-stats"},{"state":"missing","server":"http://corgat.cloud.ba.infn.it/galaxy"},{"state":"missing","server":"https://coralsnp.science.psu.edu/galaxy/"},{"state":"missing","server":"http://cropgalaxy.excellenceinbreeding.org/"},{"state":"missing","server":"http://dintor.eurac.edu/"},{"state":"missing","server":"http://igg.cloud.ba.infn.it/galaxy"},{"state":"missing","server":"https://galaxy.mesocentre.uca.fr"},{"state":"exact","version":"1.0.3","server":"https://galaxy.pasteur.fr/"},{"state":"inexact","versions":["1.0.1"],"server":"https://galaxytrakr.org/"},{"state":"missing","server":"http://hyperbrowser.uio.no/hb/"},{"state":"missing","server":"http://gigagalaxy.net/"},{"state":"missing","server":"https://galaxy-web.ipk-gatersleben.de"},{"state":"missing","server":"https://www.immportgalaxy.org/"},{"state":"missing","server":"http://galaxy.interactomix.com/"},{"state":"missing","server":"http://galaxy.ul.edu.lb/"},{"state":"exact","version":"1.0.3","server":"https://mississippi.sorbonne-universite.fr"},{"state":"missing","server":"https://neo.engr.uconn.edu/"},{"state":"missing","server":"http://mapping-by-sequencing.vm.uni-freiburg.de:8080/"},{"state":"missing","server":"http://galaxy.inf.ethz.ch"},{"state":"missing","server":"https://palfinder.ls.manchester.ac.uk/"},{"state":"missing","server":"http://pepsimili.e-nios.com:8080/"},{"state":"missing","server":"https://galaxy.bio.di.uminho.pt/"},{"state":"inexact","versions":["1.0.1","1.0.0"],"server":"https://usegalaxy.be/"},{"state":"exact","version":"1.0.3","server":"https://usegalaxy.cz/"},{"state":"exact","version":"1.0.3","server":"https://usegalaxy.eu"},{"state":"exact","version":"1.0.3","server":"https://usegalaxy.fr/"},{"state":"exact","version":"1.0.3","server":"https://usegalaxy.no/"},{"state":"exact","version":"1.0.3","server":"https://usegalaxy.org"},{"state":"exact","version":"1.0.3","server":"https://usegalaxy.org.au"},{"state":"missing","server":"https://viralvariant.anses.fr/"}],"version":"1.0.3"}]},"topic_name_human":"Ecology","admin_install":{"install_tool_dependencies":true,"install_repository_dependencies":true,"install_resolver_dependencies":true,"tools":[{"name":"regex_find_replace","owner":"galaxyp","revisions":"503bcd6ebe4b","tool_panel_section_label":"Text Manipulation","tool_shed_url":"https://toolshed.g2.bx.psu.edu/"}]},"admin_install_yaml":"---\ninstall_tool_dependencies: true\ninstall_repository_dependencies: true\ninstall_resolver_dependencies: true\ntools:\n- name: regex_find_replace\n  owner: galaxyp\n  revisions: 503bcd6ebe4b\n  tool_panel_section_label: Text Manipulation\n  tool_shed_url: https://toolshed.g2.bx.psu.edu/\n","tours":false,"video":false,"slides_recordings":false,"translations":{"tutorial":[],"slides":[],"video":false},"license":"CC-BY-4.0","type":"tutorial","contributors":[{"name":"Yvan Le Bras","email":"yvan.le-bras@mnhn.fr","twitter":"Yvan2935","matrix":"yvanlebras:matrix.org","orcid":"0000-0002-8504-068X","joined":"2017-09","elixir_node":"fr","affiliations":["pndb","gallantries","fairease","fnso2019","elixir-europe"],"id":"yvanlebras","url":"https://training.galaxyproject.org/training-material/api/contributors/yvanlebras.json","page":"https://training.galaxyproject.org/training-material/hall-of-fame/yvanlebras/"},{"name":"Sophie Pamerlon","joined":"2025-01","affiliations":["pndb","gbif"],"id":"sophiepamerlon","url":"https://training.galaxyproject.org/training-material/api/contributors/sophiepamerlon.json","page":"https://training.galaxyproject.org/training-material/hall-of-fame/sophiepamerlon/"},{"name":"Laura Russell","joined":"2025-01","affiliations":["gbif"],"id":"laurarussell","url":"https://training.galaxyproject.org/training-material/api/contributors/laurarussell.json","page":"https://training.galaxyproject.org/training-material/hall-of-fame/laurarussell/"},{"short_name":"GBIF","name":"Global Biodiversity Information Facility","url":"https://training.galaxyproject.org/training-material/api/organisations/gbif.json","avatar":"/training-material/shared/images/gbif-standard-green-logo.jpg","github":false,"members":["laurarussell","sophiepamerlon"],"id":"gbif","page":"https://training.galaxyproject.org/training-material/hall-of-fame/gbif/"},{"short_name":"PNDB","name":"Pôle National de Données de Biodiversité","url":"https://training.galaxyproject.org/training-material/api/organisations/pndb.json","avatar":"/training-material/shared/images/PNDB_sub.png","github":false,"members":["colineroyaux","Marie59","sophiepamerlon","ThibaudGlinez","yvanlebras"],"id":"pndb","page":"https://training.galaxyproject.org/training-material/hall-of-fame/pndb/"},{"name":"Saskia Hiltemann","maintainer_contact":"gitter","email":"saskia.hiltemann@gmail.com","fediverse":"https://mstdn.science/@shiltemann","fediverse_flavor":"mastodon","bluesky":"shiltemann.bsky.social","linkedin":"shiltemann","matrix":"shiltemann:matrix.org","orcid":"0000-0003-3803-468X","joined":"2017-09","bio":"Researcher at Erasmus Medical Center","elixir_node":"nl","contact_for_training":true,"affiliations":["uni-freiburg","nfdi4plants","elixir-europe"],"former_affiliations":["CINECA-Project","gallantries","erasmusmc"],"location":{"country":"NL","lat":51.912,"lon":4.462},"id":"shiltemann","url":"https://training.galaxyproject.org/training-material/api/contributors/shiltemann.json","page":"https://training.galaxyproject.org/training-material/hall-of-fame/shiltemann/"},{"name":"Yvan Le Bras","email":"yvan.le-bras@mnhn.fr","twitter":"Yvan2935","matrix":"yvanlebras:matrix.org","orcid":"0000-0002-8504-068X","joined":"2017-09","elixir_node":"fr","affiliations":["pndb","gallantries","fairease","fnso2019","elixir-europe"],"id":"yvanlebras","url":"https://training.galaxyproject.org/training-material/api/contributors/yvanlebras.json","page":"https://training.galaxyproject.org/training-material/hall-of-fame/yvanlebras/"},{"name":"Björn Grüning","email":"bjoern.gruening@gmail.com","twitter":"bjoerngruening","fediverse":"https://fosstodon.org/@bgruening","fediverse_flavor":"mastodon","matrix":"bgruening:matrix.org","orcid":"0000-0002-3079-6586","elixir_node":"de","linkedin":"bgruening","contact_for_training":true,"joined":"2017-09","location":{"country":"DE","lat":47.997791,"lon":7.842609},"affiliations":["eurosciencegateway","eosc-life","by-covid","deNBI","sfb992","elixir-converge","uni-freiburg","elixir-europe"],"id":"bgruening","url":"https://training.galaxyproject.org/training-material/api/contributors/bgruening.json","page":"https://training.galaxyproject.org/training-material/hall-of-fame/bgruening/"}]}